Time,header.seq,header.stamp.secs,header.stamp.nsecs,header.frame_id,status,Latitude,Longitude,Altitude,Utm_easting,Utm_northing,Zone,Letter
1698238571.5632439,1135,1698238571,280590534,GPS1_FRAME,1,42.33812833333333,-71.08982166666667,19.8,327841.6057804985,4689434.416509126,19,T
1698238572.2819037,1136,1698238572,280868291,GPS1_FRAME,1,42.33812833333333,-71.08982166666667,19.8,327841.6057804985,4689434.416509126,19,T
1698238572.398287,1137,1698238572,280868291,GPS1_FRAME,1,42.33812833333333,-71.08982166666667,19.8,327841.6057804985,4689434.416509126,19,T
1698238572.5633686,1138,1698238572,280868291,GPS1_FRAME,1,42.33812833333333,-71.08982166666667,19.8,327841.6057804985,4689434.416509126,19,T
1698238573.281182,1139,1698238573,280163049,GPS1_FRAME,1,42.33812833333333,-71.08982166666667,19.8,327841.6057804985,4689434.416509126,19,T
1698238573.3977518,1140,1698238573,280163049,GPS1_FRAME,1,42.33812833333333,-71.08982166666667,19.8,327841.6057804985,4689434.416509126,19,T
1698238573.5625424,1141,1698238573,280163049,GPS1_FRAME,1,42.33812833333333,-71.08982166666667,19.8,327841.6057804985,4689434.416509126,19,T
1698238574.2818298,1142,1698238574,280496835,GPS1_FRAME,1,42.33812833333333,-71.08982166666667,19.8,327841.6057804985,4689434.416509126,19,T
1698238574.397993,1143,1698238574,280496835,GPS1_FRAME,1,42.33812833333333,-71.08982166666667,19.8,327841.6057804985,4689434.416509126,19,T
1698238574.5629542,1144,1698238574,280496835,GPS1_FRAME,1,42.33812833333333,-71.08982166666667,19.8,327841.6057804985,4689434.416509126,19,T
1698238575.28292,1145,1698238575,281894683,GPS1_FRAME,1,42.33812833333333,-71.08982166666667,19.8,327841.6057804985,4689434.416509126,19,T
1698238575.4040136,1146,1698238575,281894683,GPS1_FRAME,1,42.33812833333333,-71.08982166666667,19.8,327841.6057804985,4689434.416509126,19,T
1698238575.564445,1147,1698238575,281894683,GPS1_FRAME,1,42.33812833333333,-71.08982166666667,19.8,327841.6057804985,4689434.416509126,19,T
1698238575.7201476,1148,1698238575,281894683,GPS1_FRAME,1,42.33812833333333,-71.08982166666667,19.8,327841.6057804985,4689434.416509126,19,T
1698238575.862177,1149,1698238575,281894683,GPS1_FRAME,1,42.33812833333333,-71.08982166666667,19.8,327841.6057804985,4689434.416509126,19,T
1698238576.0273905,1150,1698238575,281894683,GPS1_FRAME,1,42.33812833333333,-71.08982166666667,19.8,327841.6057804985,4689434.416509126,19,T
1698238576.2834737,1151,1698238576,282499790,GPS1_FRAME,1,42.33813333333333,-71.089825,19.8,327841.3448159952,4689434.9784700945,19,T
1698238576.4046738,1152,1698238576,282499790,GPS1_FRAME,1,42.33813333333333,-71.089825,19.8,327841.3448159952,4689434.9784700945,19,T
1698238576.569751,1153,1698238576,282499790,GPS1_FRAME,1,42.33813333333333,-71.089825,19.8,327841.3448159952,4689434.9784700945,19,T
1698238577.2822332,1154,1698238577,281186580,GPS1_FRAME,1,42.338143333333335,-71.08983,19.9,327840.9601919559,4689436.099017568,19,T
1698238577.4032254,1155,1698238577,281186580,GPS1_FRAME,1,42.338143333333335,-71.08983,19.9,327840.9601919559,4689436.099017568,19,T
1698238577.5680687,1156,1698238577,281186580,GPS1_FRAME,1,42.338143333333335,-71.08983,19.9,327840.9601919559,4689436.099017568,19,T
1698238578.283863,1157,1698238578,282699108,GPS1_FRAME,1,42.33816,-71.08983833333333,19.9,327840.3191521915,4689437.966596751,19,T
1698238578.4046273,1158,1698238578,282699108,GPS1_FRAME,1,42.33816,-71.08983833333333,19.9,327840.3191521915,4689437.966596751,19,T
1698238578.5696425,1159,1698238578,282699108,GPS1_FRAME,1,42.33816,-71.08983833333333,19.9,327840.3191521915,4689437.966596751,19,T
1698238579.287549,1160,1698238579,286114454,GPS1_FRAME,1,42.33819,-71.08985666666666,20.0,327838.8906721159,4689441.334988533,19,T
1698238579.412914,1161,1698238579,286114454,GPS1_FRAME,1,42.33819,-71.08985666666666,20.0,327838.8906721159,4689441.334988533,19,T
1698238579.5778282,1162,1698238579,286114454,GPS1_FRAME,1,42.33819,-71.08985666666666,20.0,327838.8906721159,4689441.334988533,19,T
1698238580.2866564,1163,1698238580,285590410,GPS1_FRAME,1,42.338225,-71.08987833333333,20.0,327837.201229794,4689445.265341815,19,T
1698238580.412404,1164,1698238580,285590410,GPS1_FRAME,1,42.338225,-71.08987833333333,20.0,327837.201229794,4689445.265341815,19,T
1698238580.5723355,1165,1698238580,285590410,GPS1_FRAME,1,42.338225,-71.08987833333333,20.0,327837.201229794,4689445.265341815,19,T
1698238580.7329743,1166,1698238580,285590410,GPS1_FRAME,1,42.338225,-71.08987833333333,20.0,327837.201229794,4689445.265341815,19,T
1698238580.8750002,1167,1698238580,285590410,GPS1_FRAME,1,42.338225,-71.08987833333333,20.0,327837.201229794,4689445.265341815,19,T
1698238581.0400436,1168,1698238580,285590410,GPS1_FRAME,1,42.338225,-71.08987833333333,20.0,327837.201229794,4689445.265341815,19,T
1698238581.284201,1169,1698238581,283784866,GPS1_FRAME,1,42.33826833333333,-71.08990666666666,20.1,327834.98531420116,4689450.1345473975,19,T
1698238581.4105403,1170,1698238581,283784866,GPS1_FRAME,1,42.33826833333333,-71.08990666666666,20.1,327834.98531420116,4689450.1345473975,19,T
1698238581.5754166,1171,1698238581,283784866,GPS1_FRAME,1,42.33826833333333,-71.08990666666666,20.1,327834.98531420116,4689450.1345473975,19,T
1698238582.2840853,1172,1698238582,283489227,GPS1_FRAME,1,42.33832,-71.08993833333334,20.6,327832.5175363354,4689455.93585651,19,T
1698238582.410216,1173,1698238582,283489227,GPS1_FRAME,1,42.33832,-71.08993833333334,20.6,327832.5175363354,4689455.93585651,19,T
1698238582.5752463,1174,1698238582,283489227,GPS1_FRAME,1,42.33832,-71.08993833333334,20.6,327832.5175363354,4689455.93585651,19,T
1698238583.2851512,1175,1698238583,284187793,GPS1_FRAME,1,42.338375,-71.08997166666667,20.8,327829.92155604914,4689462.110682735,19,T
1698238583.4107406,1176,1698238583,284187793,GPS1_FRAME,1,42.338375,-71.08997166666667,20.8,327829.92155604914,4689462.110682735,19,T
1698238583.5779622,1177,1698238583,284187793,GPS1_FRAME,1,42.338375,-71.08997166666667,20.8,327829.92155604914,4689462.110682735,19,T
1698238584.2862585,1178,1698238584,285147428,GPS1_FRAME,1,42.33843,-71.09000166666667,20.7,327827.60018912074,4689468.278760564,19,T
1698238584.411931,1179,1698238584,285147428,GPS1_FRAME,1,42.33843,-71.09000166666667,20.7,327827.60018912074,4689468.278760564,19,T
1698238584.5789945,1180,1698238584,285147428,GPS1_FRAME,1,42.33843,-71.09000166666667,20.7,327827.60018912074,4689468.278760564,19,T
1698238585.2856348,1181,1698238585,284459590,GPS1_FRAME,1,42.338485,-71.09003,20.7,327825.4161307429,4689474.443464512,19,T
1698238585.4110198,1182,1698238585,284459590,GPS1_FRAME,1,42.338485,-71.09003,20.7,327825.4161307429,4689474.443464512,19,T
1698238585.5715818,1183,1698238585,284459590,GPS1_FRAME,1,42.338485,-71.09003,20.7,327825.4161307429,4689474.443464512,19,T
1698238585.7319343,1184,1698238585,284459590,GPS1_FRAME,1,42.338485,-71.09003,20.7,327825.4161307429,4689474.443464512,19,T
1698238585.8739092,1185,1698238585,284459590,GPS1_FRAME,1,42.338485,-71.09003,20.7,327825.4161307429,4689474.443464512,19,T
1698238586.0413055,1186,1698238585,284459590,GPS1_FRAME,1,42.338485,-71.09003,20.7,327825.4161307429,4689474.443464512,19,T
1698238586.2859578,1187,1698238586,284970045,GPS1_FRAME,1,42.338543333333334,-71.09005833333333,20.9,327823.2411744961,4689480.978310675,19,T
1698238586.4111369,1188,1698238586,284970045,GPS1_FRAME,1,42.338543333333334,-71.09005833333333,20.9,327823.2411744961,4689480.978310675,19,T
1698238586.5788722,1189,1698238586,284970045,GPS1_FRAME,1,42.338543333333334,-71.09005833333333,20.9,327823.2411744961,4689480.978310675,19,T
1698238587.28584,1190,1698238587,284834384,GPS1_FRAME,1,42.3386,-71.09008666666666,21.2,327821.06167372805,4689487.328087013,19,T
1698238587.4114573,1191,1698238587,284834384,GPS1_FRAME,1,42.3386,-71.09008666666666,21.2,327821.06167372805,4689487.328087013,19,T
1698238587.5785837,1192,1698238587,284834384,GPS1_FRAME,1,42.3386,-71.09008666666666,21.2,327821.06167372805,4689487.328087013,19,T
1698238588.2844336,1193,1698238588,283450841,GPS1_FRAME,1,42.338655,-71.09011833333334,21.1,327818.60302080616,4689493.499543446,19,T
1698238588.410073,1194,1698238588,283450841,GPS1_FRAME,1,42.338655,-71.09011833333334,21.1,327818.60302080616,4689493.499543446,19,T
1698238588.5774615,1195,1698238588,283450841,GPS1_FRAME,1,42.338655,-71.09011833333334,21.1,327818.60302080616,4689493.499543446,19,T
1698238589.284784,1196,1698238589,283770322,GPS1_FRAME,1,42.33871166666667,-71.09014833333333,21.2,327816.28622535476,4689499.852696595,19,T
1698238589.4102676,1197,1698238589,283770322,GPS1_FRAME,1,42.33871166666667,-71.09014833333333,21.2,327816.28622535476,4689499.852696595,19,T
1698238589.577606,1198,1698238589,283770322,GPS1_FRAME,1,42.33871166666667,-71.09014833333333,21.2,327816.28622535476,4689499.852696595,19,T
1698238590.2845118,1199,1698238590,283544301,GPS1_FRAME,1,42.338768333333334,-71.09017833333333,21.3,327813.9694345085,4689506.205850694,19,T
1698238590.410227,1200,1698238590,283544301,GPS1_FRAME,1,42.338768333333334,-71.09017833333333,21.3,327813.9694345085,4689506.205850694,19,T
1698238590.5707502,1201,1698238590,283544301,GPS1_FRAME,1,42.338768333333334,-71.09017833333333,21.3,327813.9694345085,4689506.205850694,19,T
1698238590.7310576,1202,1698238590,283544301,GPS1_FRAME,1,42.338768333333334,-71.09017833333333,21.3,327813.9694345085,4689506.205850694,19,T
1698238590.8731809,1203,1698238590,283544301,GPS1_FRAME,1,42.338768333333334,-71.09017833333333,21.3,327813.9694345085,4689506.205850694,19,T
1698238591.0403512,1204,1698238590,283544301,GPS1_FRAME,1,42.338768333333334,-71.09017833333333,21.3,327813.9694345085,4689506.205850694,19,T
1698238591.2865868,1205,1698238591,285591363,GPS1_FRAME,1,42.338825,-71.09020666666666,21.9,327811.7899516181,4689512.555630632,19,T
1698238591.4121659,1206,1698238591,285591363,GPS1_FRAME,1,42.338825,-71.09020666666666,21.9,327811.7899516181,4689512.555630632,19,T
1698238591.5791297,1207,1698238591,285591363,GPS1_FRAME,1,42.338825,-71.09020666666666,21.9,327811.7899516181,4689512.555630632,19,T
1698238592.2872603,1208,1698238592,285419702,GPS1_FRAME,1,42.338883333333335,-71.090235,22.5,327809.6150224562,4689519.090482116,19,T
1698238592.4124258,1209,1698238592,285419702,GPS1_FRAME,1,42.338883333333335,-71.090235,22.5,327809.6150224562,4689519.090482116,19,T
1698238592.5794425,1210,1698238592,285419702,GPS1_FRAME,1,42.338883333333335,-71.090235,22.5,327809.6150224562,4689519.090482116,19,T
1698238593.2863321,1211,1698238593,285134792,GPS1_FRAME,1,42.33894166666666,-71.09026166666666,23.5,327807.57740088354,4689525.621959256,19,T
1698238593.4118137,1212,1698238593,285134792,GPS1_FRAME,1,42.33894166666666,-71.09026166666666,23.5,327807.57740088354,4689525.621959256,19,T
1698238593.5790994,1213,1698238593,285134792,GPS1_FRAME,1,42.33894166666666,-71.09026166666666,23.5,327807.57740088354,4689525.621959256,19,T
1698238594.2859886,1214,1698238594,284821271,GPS1_FRAME,1,42.33899666666667,-71.09028333333333,23.9,327805.94259348506,4689531.773170052,19,T
1698238594.411394,1215,1698238594,284821271,GPS1_FRAME,1,42.33899666666667,-71.09028333333333,23.9,327805.94259348506,4689531.773170052,19,T
1698238594.5787709,1216,1698238594,284821271,GPS1_FRAME,1,42.33899666666667,-71.09028333333333,23.9,327805.94259348506,4689531.773170052,19,T
1698238595.2852206,1217,1698238595,284228086,GPS1_FRAME,1,42.33905,-71.09030333333334,24.0,327804.44054267916,4689537.7359354,19,T
1698238595.4109268,1218,1698238595,284228086,GPS1_FRAME,1,42.33905,-71.09030333333334,24.0,327804.44054267916,4689537.7359354,19,T
1698238595.5712688,1219,1698238595,284228086,GPS1_FRAME,1,42.33905,-71.09030333333334,24.0,327804.44054267916,4689537.7359354,19,T
1698238595.7319574,1220,1698238595,284228086,GPS1_FRAME,1,42.33905,-71.09030333333334,24.0,327804.44054267916,4689537.7359354,19,T
1698238595.8736753,1221,1698238595,284228086,GPS1_FRAME,1,42.33905,-71.09030333333334,24.0,327804.44054267916,4689537.7359354,19,T
1698238596.041193,1222,1698238595,284228086,GPS1_FRAME,1,42.33905,-71.09030333333334,24.0,327804.44054267916,4689537.7359354,19,T
1698238596.2852566,1223,1698238596,284214019,GPS1_FRAME,1,42.339101666666664,-71.090325,24.7,327802.796642492,4689543.517005802,19,T
1698238596.4061656,1224,1698238596,284214019,GPS1_FRAME,1,42.339101666666664,-71.090325,24.7,327802.796642492,4689543.517005802,19,T
1698238596.5736125,1225,1698238596,284214019,GPS1_FRAME,1,42.339101666666664,-71.090325,24.7,327802.796642492,4689543.517005802,19,T
1698238597.2861145,1226,1698238597,284835815,GPS1_FRAME,1,42.339148333333334,-71.09034333333334,24.4,327801.41370175476,4689548.73611394,19,T
1698238597.4067,1227,1698238597,284835815,GPS1_FRAME,1,42.339148333333334,-71.09034333333334,24.4,327801.41370175476,4689548.73611394,19,T
1698238597.574169,1228,1698238597,284835815,GPS1_FRAME,1,42.339148333333334,-71.09034333333334,24.4,327801.41370175476,4689548.73611394,19,T
1698238598.2871728,1229,1698238598,285996913,GPS1_FRAME,1,42.339195,-71.09036166666667,24.5,327800.0307633694,4689553.955222451,19,T
1698238598.412726,1230,1698238598,285996913,GPS1_FRAME,1,42.339195,-71.09036166666667,24.5,327800.0307633694,4689553.955222451,19,T
1698238598.579892,1231,1698238598,285996913,GPS1_FRAME,1,42.339195,-71.09036166666667,24.5,327800.0307633694,4689553.955222451,19,T
1698238599.2868922,1232,1698238599,285908937,GPS1_FRAME,1,42.339241666666666,-71.09038166666667,24.7,327798.510524894,4689559.177706732,19,T
1698238599.4126935,1233,1698238599,285908937,GPS1_FRAME,1,42.339241666666666,-71.09038166666667,24.7,327798.510524894,4689559.177706732,19,T
1698238599.579879,1234,1698238599,285908937,GPS1_FRAME,1,42.339241666666666,-71.09038166666667,24.7,327798.510524894,4689559.177706732,19,T
1698238600.2867427,1235,1698238600,285701274,GPS1_FRAME,1,42.339283333333334,-71.09040333333333,24.7,327796.83933733136,4689563.848354765,19,T
1698238600.4121325,1236,1698238600,285701274,GPS1_FRAME,1,42.339283333333334,-71.09040333333333,24.7,327796.83933733136,4689563.848354765,19,T
1698238600.572856,1237,1698238600,285701274,GPS1_FRAME,1,42.339283333333334,-71.09040333333333,24.7,327796.83933733136,4689563.848354765,19,T
1698238600.7331824,1238,1698238600,285701274,GPS1_FRAME,1,42.339283333333334,-71.09040333333333,24.7,327796.83933733136,4689563.848354765,19,T
1698238600.8751655,1239,1698238600,285701274,GPS1_FRAME,1,42.339283333333334,-71.09040333333333,24.7,327796.83933733136,4689563.848354765,19,T
1698238601.0397117,1240,1698238600,285701274,GPS1_FRAME,1,42.339283333333334,-71.09040333333333,24.7,327796.83933733136,4689563.848354765,19,T
1698238601.2869222,1241,1698238601,285813093,GPS1_FRAME,1,42.33932,-71.09042,24.2,327795.5664095689,4689567.953664779,19,T
1698238601.4123614,1242,1698238601,285813093,GPS1_FRAME,1,42.33932,-71.09042,24.2,327795.5664095689,4689567.953664779,19,T
1698238601.5774238,1243,1698238601,285813093,GPS1_FRAME,1,42.33932,-71.09042,24.2,327795.5664095689,4689567.953664779,19,T
1698238602.288425,1244,1698238602,287284135,GPS1_FRAME,1,42.339355,-71.090435,23.7,327794.4262358207,4689571.870528896,19,T
1698238602.413874,1245,1698238602,287284135,GPS1_FRAME,1,42.339355,-71.090435,23.7,327794.4262358207,4689571.870528896,19,T
1698238602.578695,1246,1698238602,287284135,GPS1_FRAME,1,42.339355,-71.090435,23.7,327794.4262358207,4689571.870528896,19,T
1698238603.287399,1247,1698238603,286369562,GPS1_FRAME,1,42.33938333333333,-71.09044666666667,23.6,327793.54246825515,4689575.04035941,19,T
1698238603.4128263,1248,1698238603,286369562,GPS1_FRAME,1,42.33938333333333,-71.09044666666667,23.6,327793.54246825515,4689575.04035941,19,T
1698238603.5780299,1249,1698238603,286369562,GPS1_FRAME,1,42.33938333333333,-71.09044666666667,23.6,327793.54246825515,4689575.04035941,19,T
1698238604.2862525,1250,1698238604,285221338,GPS1_FRAME,1,42.339405,-71.09045666666667,23.6,327792.7778040847,4689577.466531711,19,T
1698238604.4121993,1251,1698238604,285221338,GPS1_FRAME,1,42.339405,-71.09045666666667,23.6,327792.7778040847,4689577.466531711,19,T
1698238604.5769498,1252,1698238604,285221338,GPS1_FRAME,1,42.339405,-71.09045666666667,23.6,327792.7778040847,4689577.466531711,19,T
1698238605.2855632,1253,1698238605,284570693,GPS1_FRAME,1,42.33942,-71.090465,23.5,327792.13224288577,4689579.14904574,19,T
1698238605.411317,1254,1698238605,284570693,GPS1_FRAME,1,42.33942,-71.090465,23.5,327792.13224288577,4689579.14904574,19,T
1698238605.5715394,1255,1698238605,284570693,GPS1_FRAME,1,42.33942,-71.090465,23.5,327792.13224288577,4689579.14904574,19,T
1698238605.7320144,1256,1698238605,284570693,GPS1_FRAME,1,42.33942,-71.090465,23.5,327792.13224288577,4689579.14904574,19,T
1698238605.8740993,1257,1698238605,284570693,GPS1_FRAME,1,42.33942,-71.090465,23.5,327792.13224288577,4689579.14904574,19,T
1698238606.0389225,1258,1698238605,284570693,GPS1_FRAME,1,42.33942,-71.090465,23.5,327792.13224288577,4689579.14904574,19,T
1698238606.2875612,1259,1698238606,286463499,GPS1_FRAME,1,42.33942833333333,-71.09047,23.9,327791.743086359,4689580.084525909,19,T
1698238606.4129467,1260,1698238606,286463499,GPS1_FRAME,1,42.33942833333333,-71.09047,23.9,327791.743086359,4689580.084525909,19,T
1698238606.5780811,1261,1698238606,286463499,GPS1_FRAME,1,42.33942833333333,-71.09047,23.9,327791.743086359,4689580.084525909,19,T
1698238607.286876,1262,1698238607,285855293,GPS1_FRAME,1,42.33942666666667,-71.09047,23.9,327791.73853643343,4689579.899455198,19,T
1698238607.412417,1263,1698238607,285855293,GPS1_FRAME,1,42.33942666666667,-71.09047,23.9,327791.73853643343,4689579.899455198,19,T
1698238607.5776727,1264,1698238607,285855293,GPS1_FRAME,1,42.33942666666667,-71.09047,23.9,327791.73853643343,4689579.899455198,19,T
1698238608.2878582,1265,1698238608,286636829,GPS1_FRAME,1,42.33942666666667,-71.09047,23.9,327791.73853643343,4689579.899455198,19,T
1698238608.413306,1266,1698238608,286636829,GPS1_FRAME,1,42.33942666666667,-71.09047,23.9,327791.73853643343,4689579.899455198,19,T
1698238608.578261,1267,1698238608,286636829,GPS1_FRAME,1,42.33942666666667,-71.09047,23.9,327791.73853643343,4689579.899455198,19,T
1698238609.287026,1268,1698238609,285965204,GPS1_FRAME,1,42.33942666666667,-71.09047,23.9,327791.73853643343,4689579.899455198,19,T
1698238609.4125977,1269,1698238609,285965204,GPS1_FRAME,1,42.33942666666667,-71.09047,23.9,327791.73853643343,4689579.899455198,19,T
1698238609.5775638,1270,1698238609,285965204,GPS1_FRAME,1,42.33942666666667,-71.09047,23.9,327791.73853643343,4689579.899455198,19,T
1698238610.2876225,1271,1698238610,286588668,GPS1_FRAME,1,42.33942666666667,-71.09047,23.9,327791.73853643343,4689579.899455198,19,T
1698238610.4132016,1272,1698238610,286588668,GPS1_FRAME,1,42.33942666666667,-71.09047,23.9,327791.73853643343,4689579.899455198,19,T
1698238610.5736005,1273,1698238610,286588668,GPS1_FRAME,1,42.33942666666667,-71.09047,23.9,327791.73853643343,4689579.899455198,19,T
1698238610.7340956,1274,1698238610,286588668,GPS1_FRAME,1,42.33942666666667,-71.09047,23.9,327791.73853643343,4689579.899455198,19,T
1698238610.8761015,1275,1698238610,286588668,GPS1_FRAME,1,42.33942666666667,-71.09047,23.9,327791.73853643343,4689579.899455198,19,T
1698238611.0412042,1276,1698238610,286588668,GPS1_FRAME,1,42.33942666666667,-71.09047,23.9,327791.73853643343,4689579.899455198,19,T
1698238611.2872016,1277,1698238611,285983085,GPS1_FRAME,1,42.33942666666667,-71.09047,23.9,327791.73853643343,4689579.899455198,19,T
1698238611.4127035,1278,1698238611,285983085,GPS1_FRAME,1,42.33942666666667,-71.09047,23.9,327791.73853643343,4689579.899455198,19,T
1698238611.5775473,1279,1698238611,285983085,GPS1_FRAME,1,42.33942666666667,-71.09047,23.9,327791.73853643343,4689579.899455198,19,T
1698238612.2879348,1280,1698238612,286923408,GPS1_FRAME,1,42.33942666666667,-71.09047,23.9,327791.73853643343,4689579.899455198,19,T
1698238612.413637,1281,1698238612,286923408,GPS1_FRAME,1,42.33942666666667,-71.09047,23.9,327791.73853643343,4689579.899455198,19,T
1698238612.5784755,1282,1698238612,286923408,GPS1_FRAME,1,42.33942666666667,-71.09047,23.9,327791.73853643343,4689579.899455198,19,T
1698238613.2868495,1283,1698238613,285825729,GPS1_FRAME,1,42.33942666666667,-71.09047,23.9,327791.73853643343,4689579.899455198,19,T
1698238613.4124362,1284,1698238613,285825729,GPS1_FRAME,1,42.33942666666667,-71.09047,23.9,327791.73853643343,4689579.899455198,19,T
1698238613.577656,1285,1698238613,285825729,GPS1_FRAME,1,42.33942666666667,-71.09047,23.9,327791.73853643343,4689579.899455198,19,T
1698238614.2886307,1286,1698238614,287593126,GPS1_FRAME,1,42.33942666666667,-71.09047,23.9,327791.73853643343,4689579.899455198,19,T
1698238614.414395,1287,1698238614,287593126,GPS1_FRAME,1,42.33942666666667,-71.09047,23.9,327791.73853643343,4689579.899455198,19,T
1698238614.5793111,1288,1698238614,287593126,GPS1_FRAME,1,42.33942666666667,-71.09047,23.9,327791.73853643343,4689579.899455198,19,T
1698238615.287623,1289,1698238615,286547660,GPS1_FRAME,1,42.33942666666667,-71.09047,23.9,327791.73853643343,4689579.899455198,19,T
1698238615.413091,1290,1698238615,286547660,GPS1_FRAME,1,42.33942666666667,-71.09047,23.9,327791.73853643343,4689579.899455198,19,T
1698238615.5735621,1291,1698238615,286547660,GPS1_FRAME,1,42.33942666666667,-71.09047,23.9,327791.73853643343,4689579.899455198,19,T
1698238615.7340882,1292,1698238615,286547660,GPS1_FRAME,1,42.33942666666667,-71.09047,23.9,327791.73853643343,4689579.899455198,19,T
1698238615.8760927,1293,1698238615,286547660,GPS1_FRAME,1,42.33942666666667,-71.09047,23.9,327791.73853643343,4689579.899455198,19,T
1698238616.041118,1294,1698238615,286547660,GPS1_FRAME,1,42.33942666666667,-71.09047,23.9,327791.73853643343,4689579.899455198,19,T
1698238616.2899525,1295,1698238616,287521600,GPS1_FRAME,1,42.33942666666667,-71.09047,23.9,327791.73853643343,4689579.899455198,19,T
1698238616.4141665,1296,1698238616,287521600,GPS1_FRAME,1,42.33942666666667,-71.09047,23.9,327791.73853643343,4689579.899455198,19,T
1698238616.5790865,1297,1698238616,287521600,GPS1_FRAME,1,42.33942666666667,-71.09047,23.9,327791.73853643343,4689579.899455198,19,T
1698238617.2875328,1298,1698238617,286485910,GPS1_FRAME,1,42.33942666666667,-71.09047,23.9,327791.73853643343,4689579.899455198,19,T
1698238617.4131866,1299,1698238617,286485910,GPS1_FRAME,1,42.33942666666667,-71.09047,23.9,327791.73853643343,4689579.899455198,19,T
1698238617.578046,1300,1698238617,286485910,GPS1_FRAME,1,42.33942666666667,-71.09047,23.9,327791.73853643343,4689579.899455198,19,T
1698238618.288296,1301,1698238618,287290334,GPS1_FRAME,1,42.33942666666667,-71.09047,23.9,327791.73853643343,4689579.899455198,19,T
1698238618.41402,1302,1698238618,287290334,GPS1_FRAME,1,42.33942666666667,-71.09047,23.9,327791.73853643343,4689579.899455198,19,T
1698238618.5789504,1303,1698238618,287290334,GPS1_FRAME,1,42.33942666666667,-71.09047,23.9,327791.73853643343,4689579.899455198,19,T
1698238619.2885044,1304,1698238619,287227392,GPS1_FRAME,1,42.33942666666667,-71.09047,23.9,327791.73853643343,4689579.899455198,19,T
1698238619.4138486,1305,1698238619,287227392,GPS1_FRAME,1,42.33942666666667,-71.09047,23.9,327791.73853643343,4689579.899455198,19,T
1698238619.5789611,1306,1698238619,287227392,GPS1_FRAME,1,42.33942666666667,-71.09047,23.9,327791.73853643343,4689579.899455198,19,T
1698238620.288673,1307,1698238620,287317752,GPS1_FRAME,1,42.33942666666667,-71.09047,23.9,327791.73853643343,4689579.899455198,19,T
1698238620.414095,1308,1698238620,287317752,GPS1_FRAME,1,42.33942666666667,-71.09047,23.9,327791.73853643343,4689579.899455198,19,T
1698238620.5745275,1309,1698238620,287317752,GPS1_FRAME,1,42.33942666666667,-71.09047,23.9,327791.73853643343,4689579.899455198,19,T
1698238620.7350528,1310,1698238620,287317752,GPS1_FRAME,1,42.33942666666667,-71.09047,23.9,327791.73853643343,4689579.899455198,19,T
1698238620.8768892,1311,1698238620,287317752,GPS1_FRAME,1,42.33942666666667,-71.09047,23.9,327791.73853643343,4689579.899455198,19,T
1698238621.041905,1312,1698238620,287317752,GPS1_FRAME,1,42.33942666666667,-71.09047,23.9,327791.73853643343,4689579.899455198,19,T
1698238621.2885373,1313,1698238621,287083148,GPS1_FRAME,1,42.33942666666667,-71.09047,23.9,327791.73853643343,4689579.899455198,19,T
1698238621.4136791,1314,1698238621,287083148,GPS1_FRAME,1,42.33942666666667,-71.09047,23.9,327791.73853643343,4689579.899455198,19,T
1698238621.578814,1315,1698238621,287083148,GPS1_FRAME,1,42.33942666666667,-71.09047,23.9,327791.73853643343,4689579.899455198,19,T
1698238622.288653,1316,1698238622,287346124,GPS1_FRAME,1,42.33942666666667,-71.09047,23.9,327791.73853643343,4689579.899455198,19,T
1698238622.4138496,1317,1698238622,287346124,GPS1_FRAME,1,42.33942666666667,-71.09047,23.9,327791.73853643343,4689579.899455198,19,T
1698238622.57899,1318,1698238622,287346124,GPS1_FRAME,1,42.33942666666667,-71.09047,23.9,327791.73853643343,4689579.899455198,19,T
1698238623.2882624,1319,1698238623,287173271,GPS1_FRAME,1,42.33942666666667,-71.09047,23.9,327791.73853643343,4689579.899455198,19,T
1698238623.413773,1320,1698238623,287173271,GPS1_FRAME,1,42.33942666666667,-71.09047,23.9,327791.73853643343,4689579.899455198,19,T
1698238623.5787773,1321,1698238623,287173271,GPS1_FRAME,1,42.33942666666667,-71.09047,23.9,327791.73853643343,4689579.899455198,19,T
1698238624.288421,1322,1698238624,287025690,GPS1_FRAME,1,42.33942666666667,-71.09047,23.9,327791.73853643343,4689579.899455198,19,T
1698238624.4135067,1323,1698238624,287025690,GPS1_FRAME,1,42.33942666666667,-71.09047,23.9,327791.73853643343,4689579.899455198,19,T
1698238624.578603,1324,1698238624,287025690,GPS1_FRAME,1,42.33942666666667,-71.09047,23.9,327791.73853643343,4689579.899455198,19,T
1698238625.2879622,1325,1698238625,286379814,GPS1_FRAME,1,42.33942666666667,-71.09047,23.9,327791.73853643343,4689579.899455198,19,T
1698238625.4128535,1326,1698238625,286379814,GPS1_FRAME,1,42.33942666666667,-71.09047,23.9,327791.73853643343,4689579.899455198,19,T
1698238625.573352,1327,1698238625,286379814,GPS1_FRAME,1,42.33942666666667,-71.09047,23.9,327791.73853643343,4689579.899455198,19,T
1698238625.7336357,1328,1698238625,286379814,GPS1_FRAME,1,42.33942666666667,-71.09047,23.9,327791.73853643343,4689579.899455198,19,T
1698238625.8757632,1329,1698238625,286379814,GPS1_FRAME,1,42.33942666666667,-71.09047,23.9,327791.73853643343,4689579.899455198,19,T
1698238626.0406947,1330,1698238625,286379814,GPS1_FRAME,1,42.33942666666667,-71.09047,23.9,327791.73853643343,4689579.899455198,19,T
1698238626.2888322,1331,1698238626,287311077,GPS1_FRAME,1,42.33942666666667,-71.09047,23.9,327791.73853643343,4689579.899455198,19,T
1698238626.4140298,1332,1698238626,287311077,GPS1_FRAME,1,42.33942666666667,-71.09047,23.9,327791.73853643343,4689579.899455198,19,T
1698238626.578949,1333,1698238626,287311077,GPS1_FRAME,1,42.33942666666667,-71.09047,23.9,327791.73853643343,4689579.899455198,19,T
1698238627.288981,1334,1698238627,287491083,GPS1_FRAME,1,42.33942666666667,-71.09047,23.9,327791.73853643343,4689579.899455198,19,T
1698238627.4139836,1335,1698238627,287491083,GPS1_FRAME,1,42.33942666666667,-71.09047,23.9,327791.73853643343,4689579.899455198,19,T
1698238627.5792055,1336,1698238627,287491083,GPS1_FRAME,1,42.33942666666667,-71.09047,23.9,327791.73853643343,4689579.899455198,19,T
1698238628.2880464,1337,1698238628,286768913,GPS1_FRAME,1,42.33942666666667,-71.09047,23.9,327791.73853643343,4689579.899455198,19,T
1698238628.4134471,1338,1698238628,286768913,GPS1_FRAME,1,42.33942666666667,-71.09047,23.9,327791.73853643343,4689579.899455198,19,T
1698238628.5783691,1339,1698238628,286768913,GPS1_FRAME,1,42.33942666666667,-71.09047,23.9,327791.73853643343,4689579.899455198,19,T
1698238629.2874432,1340,1698238629,286297559,GPS1_FRAME,1,42.33942833333333,-71.09047333333334,23.9,327791.4684822926,4689580.091277,19,T
1698238629.4130297,1341,1698238629,286297559,GPS1_FRAME,1,42.33942833333333,-71.09047333333334,23.9,327791.4684822926,4689580.091277,19,T
1698238629.578012,1342,1698238629,286297559,GPS1_FRAME,1,42.33942833333333,-71.09047333333334,23.9,327791.4684822926,4689580.091277,19,T
1698238630.287376,1343,1698238630,286257982,GPS1_FRAME,1,42.339436666666664,-71.09047833333334,24.0,327791.0793259124,4689581.0267572105,19,T
1698238630.4130337,1344,1698238630,286257982,GPS1_FRAME,1,42.339436666666664,-71.09047833333334,24.0,327791.0793259124,4689581.0267572105,19,T
1698238630.5732048,1345,1698238630,286257982,GPS1_FRAME,1,42.339436666666664,-71.09047833333334,24.0,327791.0793259124,4689581.0267572105,19,T
1698238630.7335827,1346,1698238630,286257982,GPS1_FRAME,1,42.339436666666664,-71.09047833333334,24.0,327791.0793259124,4689581.0267572105,19,T
1698238630.875666,1347,1698238630,286257982,GPS1_FRAME,1,42.339436666666664,-71.09047833333334,24.0,327791.0793259124,4689581.0267572105,19,T
1698238631.0406175,1348,1698238630,286257982,GPS1_FRAME,1,42.339436666666664,-71.09047833333334,24.0,327791.0793259124,4689581.0267572105,19,T
1698238631.2872288,1349,1698238631,286094427,GPS1_FRAME,1,42.33944666666667,-71.090485,24.0,327790.55741761066,4689582.150683724,19,T
1698238631.412669,1350,1698238631,286094427,GPS1_FRAME,1,42.33944666666667,-71.090485,24.0,327790.55741761066,4689582.150683724,19,T
1698238631.5774596,1351,1698238631,286094427,GPS1_FRAME,1,42.33944666666667,-71.090485,24.0,327790.55741761066,4689582.150683724,19,T
1698238632.2879303,1352,1698238632,286775112,GPS1_FRAME,1,42.33946,-71.09049166666667,23.9,327790.0446094392,4689583.644751708,19,T
1698238632.4132893,1353,1698238632,286775112,GPS1_FRAME,1,42.33946,-71.09049166666667,23.9,327790.0446094392,4689583.644751708,19,T
1698238632.5782697,1354,1698238632,286775112,GPS1_FRAME,1,42.33946,-71.09049166666667,23.9,327790.0446094392,4689583.644751708,19,T
1698238633.286648,1355,1698238633,285674333,GPS1_FRAME,1,42.33947333333333,-71.0905,23.9,327789.3944995706,4689585.142195327,19,T
1698238633.4122837,1356,1698238633,285674333,GPS1_FRAME,1,42.33947333333333,-71.0905,23.9,327789.3944995706,4689585.142195327,19,T
1698238633.5772748,1357,1698238633,285674333,GPS1_FRAME,1,42.33947333333333,-71.0905,23.9,327789.3944995706,4689585.142195327,19,T
1698238634.2865624,1358,1698238634,285595417,GPS1_FRAME,1,42.339483333333334,-71.09050666666667,23.8,327788.8725918882,4689586.266121992,19,T
1698238634.4120927,1359,1698238634,285595417,GPS1_FRAME,1,42.339483333333334,-71.09050666666667,23.8,327788.8725918882,4689586.266121992,19,T
1698238634.577247,1360,1698238634,285595417,GPS1_FRAME,1,42.339483333333334,-71.09050666666667,23.8,327788.8725918882,4689586.266121992,19,T
1698238635.2871697,1361,1698238635,286206245,GPS1_FRAME,1,42.33949166666667,-71.09051166666667,23.8,327788.48343625607,4689587.201602375,19,T
1698238635.4128535,1362,1698238635,286206245,GPS1_FRAME,1,42.33949166666667,-71.09051166666667,23.8,327788.48343625607,4689587.201602375,19,T
1698238635.5731316,1363,1698238635,286206245,GPS1_FRAME,1,42.33949166666667,-71.09051166666667,23.8,327788.48343625607,4689587.201602375,19,T
1698238635.7334933,1364,1698238635,286206245,GPS1_FRAME,1,42.33949166666667,-71.09051166666667,23.8,327788.48343625607,4689587.201602375,19,T
1698238635.875707,1365,1698238635,286206245,GPS1_FRAME,1,42.33949166666667,-71.09051166666667,23.8,327788.48343625607,4689587.201602375,19,T
1698238636.040525,1366,1698238635,286206245,GPS1_FRAME,1,42.33949166666667,-71.09051166666667,23.8,327788.48343625607,4689587.201602375,19,T
1698238636.2876647,1367,1698238636,286535739,GPS1_FRAME,1,42.3395,-71.090515,23.9,327788.2315826148,4689588.133707167,19,T
1698238636.4131916,1368,1698238636,286535739,GPS1_FRAME,1,42.3395,-71.090515,23.9,327788.2315826148,4689588.133707167,19,T
1698238636.5782452,1369,1698238636,286535739,GPS1_FRAME,1,42.3395,-71.090515,23.9,327788.2315826148,4689588.133707167,19,T
1698238637.2865658,1370,1698238637,285495758,GPS1_FRAME,1,42.33951166666667,-71.09052166666666,23.9,327787.71422541986,4689589.442704647,19,T
1698238637.4119713,1371,1698238637,285495758,GPS1_FRAME,1,42.33951166666667,-71.09052166666666,23.9,327787.71422541986,4689589.442704647,19,T
1698238637.5771117,1372,1698238637,285495758,GPS1_FRAME,1,42.33951166666667,-71.09052166666666,23.9,327787.71422541986,4689589.442704647,19,T
1698238638.2894313,1373,1698238638,288369894,GPS1_FRAME,1,42.33952333333333,-71.09052666666666,23.7,327787.3341702629,4689590.748326539,19,T
1698238638.415089,1374,1698238638,288369894,GPS1_FRAME,1,42.33952333333333,-71.09052666666666,23.7,327787.3341702629,4689590.748326539,19,T
1698238638.5799134,1375,1698238638,288369894,GPS1_FRAME,1,42.33952333333333,-71.09052666666666,23.7,327787.3341702629,4689590.748326539,19,T
1698238639.2886474,1376,1698238639,287580251,GPS1_FRAME,1,42.339535,-71.09053166666666,23.6,327786.95411526546,4689592.0539484555,19,T
1698238639.4145722,1377,1698238639,287580251,GPS1_FRAME,1,42.339535,-71.09053166666666,23.6,327786.95411526546,4689592.0539484555,19,T
1698238639.5792117,1378,1698238639,287580251,GPS1_FRAME,1,42.339535,-71.09053166666666,23.6,327786.95411526546,4689592.0539484555,19,T
1698238640.2887762,1379,1698238640,287553787,GPS1_FRAME,1,42.339546666666664,-71.090535,23.3,327786.7113622004,4689593.356194751,19,T
1698238640.414199,1380,1698238640,287553787,GPS1_FRAME,1,42.339546666666664,-71.090535,23.3,327786.7113622004,4689593.356194751,19,T
1698238640.5745919,1381,1698238640,287553787,GPS1_FRAME,1,42.339546666666664,-71.090535,23.3,327786.7113622004,4689593.356194751,19,T
1698238640.7350202,1382,1698238640,287553787,GPS1_FRAME,1,42.339546666666664,-71.090535,23.3,327786.7113622004,4689593.356194751,19,T
1698238640.877116,1383,1698238640,287553787,GPS1_FRAME,1,42.339546666666664,-71.090535,23.3,327786.7113622004,4689593.356194751,19,T
1698238641.0419755,1384,1698238640,287553787,GPS1_FRAME,1,42.339546666666664,-71.090535,23.3,327786.7113622004,4689593.356194751,19,T
1698238641.2881358,1385,1698238641,286903142,GPS1_FRAME,1,42.33956166666667,-71.09054,23.1,327786.34040767606,4689595.031958147,19,T
1698238641.4136589,1386,1698238641,286903142,GPS1_FRAME,1,42.33956166666667,-71.09054,23.1,327786.34040767606,4689595.031958147,19,T
1698238641.5784981,1387,1698238641,286903142,GPS1_FRAME,1,42.33956166666667,-71.09054,23.1,327786.34040767606,4689595.031958147,19,T
1698238642.2871242,1388,1698238642,286088943,GPS1_FRAME,1,42.339576666666666,-71.09054333333333,22.9,327786.10675507115,4689596.704345906,19,T
1698238642.412542,1389,1698238642,286088943,GPS1_FRAME,1,42.339576666666666,-71.09054333333333,22.9,327786.10675507115,4689596.704345906,19,T
1698238642.577569,1390,1698238642,286088943,GPS1_FRAME,1,42.339576666666666,-71.09054333333333,22.9,327786.10675507115,4689596.704345906,19,T
1698238643.2872252,1391,1698238643,286213636,GPS1_FRAME,1,42.33959333333333,-71.090545,22.5,327786.014954387,4689598.558428732,19,T
1698238643.4127326,1392,1698238643,286213636,GPS1_FRAME,1,42.33959333333333,-71.090545,22.5,327786.014954387,4689598.558428732,19,T
1698238643.5731096,1393,1698238643,286213636,GPS1_FRAME,1,42.33959333333333,-71.090545,22.5,327786.014954387,4689598.558428732,19,T
1698238644.288567,1394,1698238644,287271976,GPS1_FRAME,1,42.339605,-71.09054333333333,22.1,327786.1841067649,4689599.850548083,19,T
1698238644.4137495,1395,1698238644,287271976,GPS1_FRAME,1,42.339605,-71.09054333333333,22.1,327786.1841067649,4689599.850548083,19,T
1698238644.5742154,1396,1698238644,287271976,GPS1_FRAME,1,42.339605,-71.09054333333333,22.1,327786.1841067649,4689599.850548083,19,T
1698238645.2869904,1397,1698238645,286010742,GPS1_FRAME,1,42.33961333333333,-71.09054166666667,21.7,327786.3441589008,4689600.772526005,19,T
1698238645.4128292,1398,1698238645,286010742,GPS1_FRAME,1,42.33961333333333,-71.09054166666667,21.7,327786.3441589008,4689600.772526005,19,T
1698238645.573008,1399,1698238645,286010742,GPS1_FRAME,1,42.33961333333333,-71.09054166666667,21.7,327786.3441589008,4689600.772526005,19,T
1698238645.733584,1400,1698238645,286010742,GPS1_FRAME,1,42.33961333333333,-71.09054166666667,21.7,327786.3441589008,4689600.772526005,19,T
1698238645.8753865,1401,1698238645,286010742,GPS1_FRAME,1,42.33961333333333,-71.09054166666667,21.7,327786.3441589008,4689600.772526005,19,T
1698238646.038299,1402,1698238645,286010742,GPS1_FRAME,1,42.33961333333333,-71.09054166666667,21.7,327786.3441589008,4689600.772526005,19,T
1698238646.2878127,1403,1698238646,286684751,GPS1_FRAME,1,42.33962,-71.09053833333333,21.2,327786.6369625262,4689601.506057558,19,T
1698238646.4134488,1404,1698238646,286684751,GPS1_FRAME,1,42.33962,-71.09053833333333,21.2,327786.6369625262,4689601.506057558,19,T
1698238646.576085,1405,1698238646,286684751,GPS1_FRAME,1,42.33962,-71.09053833333333,21.2,327786.6369625262,4689601.506057558,19,T
1698238647.2879636,1406,1698238647,286959648,GPS1_FRAME,1,42.33963166666667,-71.09053166666666,21.0,327787.21801953175,4689602.788049978,19,T
1698238647.413587,1407,1698238647,286959648,GPS1_FRAME,1,42.33963166666667,-71.09053166666666,21.0,327787.21801953175,4689602.788049978,19,T
1698238647.5762923,1408,1698238647,286959648,GPS1_FRAME,1,42.33963166666667,-71.09053166666666,21.0,327787.21801953175,4689602.788049978,19,T
1698238648.2874517,1409,1698238648,286431550,GPS1_FRAME,1,42.33964666666667,-71.09051833333334,20.6,327788.35738269927,4689604.426681366,19,T
1698238648.4131296,1410,1698238648,286431550,GPS1_FRAME,1,42.33964666666667,-71.09051833333334,20.6,327788.35738269927,4689604.426681366,19,T
1698238648.575768,1411,1698238648,286431550,GPS1_FRAME,1,42.33964666666667,-71.09051833333334,20.6,327788.35738269927,4689604.426681366,19,T
1698238649.2871594,1412,1698238649,286096334,GPS1_FRAME,1,42.339663333333334,-71.090495,20.3,327790.3251045038,4689606.230130083,19,T
1698238649.412542,1413,1698238649,286096334,GPS1_FRAME,1,42.339663333333334,-71.090495,20.3,327790.3251045038,4689606.230130083,19,T
1698238649.5752902,1414,1698238649,286096334,GPS1_FRAME,1,42.339663333333334,-71.090495,20.3,327790.3251045038,4689606.230130083,19,T
1698238650.288585,1415,1698238650,287358045,GPS1_FRAME,1,42.339681666666664,-71.09045666666667,20.0,327793.5330885866,4689608.188270223,19,T
1698238650.4138281,1416,1698238650,287358045,GPS1_FRAME,1,42.339681666666664,-71.09045666666667,20.0,327793.5330885866,4689608.188270223,19,T
1698238650.5743315,1417,1698238650,287358045,GPS1_FRAME,1,42.339681666666664,-71.09045666666667,20.0,327793.5330885866,4689608.188270223,19,T
1698238650.7347367,1418,1698238650,287358045,GPS1_FRAME,1,42.339681666666664,-71.09045666666667,20.0,327793.5330885866,4689608.188270223,19,T
1698238650.8766868,1419,1698238650,287358045,GPS1_FRAME,1,42.339681666666664,-71.09045666666667,20.0,327793.5330885866,4689608.188270223,19,T
1698238651.039516,1420,1698238650,287358045,GPS1_FRAME,1,42.339681666666664,-71.09045666666667,20.0,327793.5330885866,4689608.188270223,19,T
1698238651.2880232,1421,1698238651,286825418,GPS1_FRAME,1,42.339705,-71.090405,19.9,327797.8531317889,4689610.674620332,19,T
1698238651.413442,1422,1698238651,286825418,GPS1_FRAME,1,42.339705,-71.090405,19.9,327797.8531317889,4689610.674620332,19,T
1698238651.5785534,1423,1698238651,286825418,GPS1_FRAME,1,42.339705,-71.090405,19.9,327797.8531317889,4689610.674620332,19,T
1698238652.2881494,1424,1698238652,286952018,GPS1_FRAME,1,42.339731666666665,-71.09034,19.6,327803.2806822228,4689613.504111684,19,T
1698238652.4134965,1425,1698238652,286952018,GPS1_FRAME,1,42.339731666666665,-71.09034,19.6,327803.2806822228,4689613.504111684,19,T
1698238652.5784872,1426,1698238652,286952018,GPS1_FRAME,1,42.339731666666665,-71.09034,19.6,327803.2806822228,4689613.504111684,19,T
1698238653.2873163,1427,1698238653,286130905,GPS1_FRAME,1,42.33976166666667,-71.09026666666666,19.4,327809.4038337248,4689616.686872439,19,T
1698238653.412814,1428,1698238653,286130905,GPS1_FRAME,1,42.33976166666667,-71.09026666666666,19.4,327809.4038337248,4689616.686872439,19,T
1698238653.5775282,1429,1698238653,286130905,GPS1_FRAME,1,42.33976166666667,-71.09026666666666,19.4,327809.4038337248,4689616.686872439,19,T
1698238654.28645,1430,1698238654,285472869,GPS1_FRAME,1,42.33979333333333,-71.090185,19.3,327816.21803502546,4689620.0378336515,19,T
1698238654.4121137,1431,1698238654,285472869,GPS1_FRAME,1,42.33979333333333,-71.090185,19.3,327816.21803502546,4689620.0378336515,19,T
1698238654.5770051,1432,1698238654,285472869,GPS1_FRAME,1,42.33979333333333,-71.090185,19.3,327816.21803502546,4689620.0378336515,19,T
1698238655.2879512,1433,1698238655,286807775,GPS1_FRAME,1,42.33982666666667,-71.0901,19.1,327823.3113810731,4689623.567122132,19,T
1698238655.4134386,1434,1698238655,286807775,GPS1_FRAME,1,42.33982666666667,-71.0901,19.1,327823.3113810731,4689623.567122132,19,T
1698238655.5737917,1435,1698238655,286807775,GPS1_FRAME,1,42.33982666666667,-71.0901,19.1,327823.3113810731,4689623.567122132,19,T
1698238655.7343159,1436,1698238655,286807775,GPS1_FRAME,1,42.33982666666667,-71.0901,19.1,327823.3113810731,4689623.567122132,19,T
1698238655.8762753,1437,1698238655,286807775,GPS1_FRAME,1,42.33982666666667,-71.0901,19.1,327823.3113810731,4689623.567122132,19,T
1698238656.041464,1438,1698238655,286807775,GPS1_FRAME,1,42.33982666666667,-71.0901,19.1,327823.3113810731,4689623.567122132,19,T
1698238656.2878592,1439,1698238656,286774158,GPS1_FRAME,1,42.339861666666664,-71.090015,19.1,327830.409268708,4689627.281488312,19,T
1698238656.4132543,1440,1698238656,286774158,GPS1_FRAME,1,42.339861666666664,-71.090015,19.1,327830.409268708,4689627.281488312,19,T
1698238656.5783587,1441,1698238656,286774158,GPS1_FRAME,1,42.339861666666664,-71.090015,19.1,327830.409268708,4689627.281488312,19,T
1698238657.2872422,1442,1698238657,286104917,GPS1_FRAME,1,42.339895,-71.08993,19.1,327837.5025998036,4689630.810790767,19,T
1698238657.4127614,1443,1698238657,286104917,GPS1_FRAME,1,42.339895,-71.08993,19.1,327837.5025998036,4689630.810790767,19,T
1698238657.5776463,1444,1698238657,286104917,GPS1_FRAME,1,42.339895,-71.08993,19.1,327837.5025998036,4689630.810790767,19,T
1698238658.2879932,1445,1698238658,286923170,GPS1_FRAME,1,42.33992833333333,-71.089845,19.0,327844.59592351445,4689634.340100209,19,T
1698238658.413461,1446,1698238658,286923170,GPS1_FRAME,1,42.33992833333333,-71.089845,19.0,327844.59592351445,4689634.340100209,19,T
1698238658.5784185,1447,1698238658,286923170,GPS1_FRAME,1,42.33992833333333,-71.089845,19.0,327844.59592351445,4689634.340100209,19,T
1698238659.2879956,1448,1698238659,286798477,GPS1_FRAME,1,42.33996333333333,-71.08975666666667,18.8,327851.96838998725,4689638.0477385605,19,T
1698238659.4133375,1449,1698238659,286798477,GPS1_FRAME,1,42.33996333333333,-71.08975666666667,18.8,327851.96838998725,4689638.0477385605,19,T
1698238659.5783021,1450,1698238659,286798477,GPS1_FRAME,1,42.33996333333333,-71.08975666666667,18.8,327851.96838998725,4689638.0477385605,19,T
1698238660.2874222,1451,1698238660,286309719,GPS1_FRAME,1,42.339996666666664,-71.08967166666666,18.6,327859.0616985994,4689641.577062252,19,T
1698238660.4130685,1452,1698238660,286309719,GPS1_FRAME,1,42.339996666666664,-71.08967166666666,18.6,327859.0616985994,4689641.577062252,19,T
1698238660.5733678,1453,1698238660,286309719,GPS1_FRAME,1,42.339996666666664,-71.08967166666666,18.6,327859.0616985994,4689641.577062252,19,T
1698238660.7337337,1454,1698238660,286309719,GPS1_FRAME,1,42.339996666666664,-71.08967166666666,18.6,327859.0616985994,4689641.577062252,19,T
1698238660.8759894,1455,1698238660,286309719,GPS1_FRAME,1,42.339996666666664,-71.08967166666666,18.6,327859.0616985994,4689641.577062252,19,T
1698238661.040851,1456,1698238660,286309719,GPS1_FRAME,1,42.339996666666664,-71.08967166666666,18.6,327859.0616985994,4689641.577062252,19,T
1698238661.2865784,1457,1698238661,285523176,GPS1_FRAME,1,42.34003,-71.08958666666666,18.4,327866.15499982674,4689645.106392932,19,T
1698238661.4119747,1458,1698238661,285523176,GPS1_FRAME,1,42.34003,-71.08958666666666,18.4,327866.15499982674,4689645.106392932,19,T
1698238661.576963,1459,1698238661,285523176,GPS1_FRAME,1,42.34003,-71.08958666666666,18.4,327866.15499982674,4689645.106392932,19,T
1698238662.2877843,1460,1698238662,286544084,GPS1_FRAME,1,42.340061666666664,-71.08950666666667,18.2,327872.83184386266,4689648.460781847,19,T
1698238662.4132023,1461,1698238662,286544084,GPS1_FRAME,1,42.340061666666664,-71.08950666666667,18.2,327872.83184386266,4689648.460781847,19,T
1698238662.5783815,1462,1698238662,286544084,GPS1_FRAME,1,42.340061666666664,-71.08950666666667,18.2,327872.83184386266,4689648.460781847,19,T
1698238663.2868583,1463,1698238663,285823345,GPS1_FRAME,1,42.340093333333336,-71.08942833333333,18.0,327879.3713807196,4689651.818550816,19,T
1698238663.412358,1464,1698238663,285823345,GPS1_FRAME,1,42.340093333333336,-71.08942833333333,18.0,327879.3713807196,4689651.818550816,19,T
1698238663.5773838,1465,1698238663,285823345,GPS1_FRAME,1,42.340093333333336,-71.08942833333333,18.0,327879.3713807196,4689651.818550816,19,T
1698238664.2872176,1466,1698238664,285850763,GPS1_FRAME,1,42.34012166666667,-71.08935166666667,17.8,327885.76451550634,4689654.809558026,19,T
1698238664.4126186,1467,1698238664,285850763,GPS1_FRAME,1,42.34012166666667,-71.08935166666667,17.8,327885.76451550634,4689654.809558026,19,T
1698238664.5774946,1468,1698238664,285850763,GPS1_FRAME,1,42.34012166666667,-71.08935166666667,17.8,327885.76451550634,4689654.809558026,19,T
1698238665.2873976,1469,1698238665,286343574,GPS1_FRAME,1,42.340151666666664,-71.08927833333334,17.6,327891.8875911199,4689657.992388883,19,T
1698238665.4129338,1470,1698238665,286343574,GPS1_FRAME,1,42.340151666666664,-71.08927833333334,17.6,327891.8875911199,4689657.992388883,19,T
1698238665.5733175,1471,1698238665,286343574,GPS1_FRAME,1,42.340151666666664,-71.08927833333334,17.6,327891.8875911199,4689657.992388883,19,T
1698238665.733675,1472,1698238665,286343574,GPS1_FRAME,1,42.340151666666664,-71.08927833333334,17.6,327891.8875911199,4689657.992388883,19,T
1698238665.8758235,1473,1698238665,286343574,GPS1_FRAME,1,42.340151666666664,-71.08927833333334,17.6,327891.8875911199,4689657.992388883,19,T
1698238666.0406742,1474,1698238665,286343574,GPS1_FRAME,1,42.340151666666664,-71.08927833333334,17.6,327891.8875911199,4689657.992388883,19,T
1698238666.2886975,1475,1698238666,287665128,GPS1_FRAME,1,42.340178333333334,-71.08921,17.5,327897.5896653663,4689660.815204035,19,T
1698238666.4143734,1476,1698238666,287665128,GPS1_FRAME,1,42.340178333333334,-71.08921,17.5,327897.5896653663,4689660.815204035,19,T
1698238666.5792944,1477,1698238666,287665128,GPS1_FRAME,1,42.340178333333334,-71.08921,17.5,327897.5896653663,4689660.815204035,19,T
1698238667.2893157,1478,1698238667,288325548,GPS1_FRAME,1,42.340203333333335,-71.08914833333333,17.4,327902.7379864282,4689663.46644662,19,T
1698238667.414928,1479,1698238667,288325548,GPS1_FRAME,1,42.340203333333335,-71.08914833333333,17.4,327902.7379864282,4689663.46644662,19,T
1698238667.5798488,1480,1698238667,288325548,GPS1_FRAME,1,42.340203333333335,-71.08914833333333,17.4,327902.7379864282,4689663.46644662,19,T
1698238668.288951,1481,1698238668,287870883,GPS1_FRAME,1,42.340226666666666,-71.089095,17.2,327907.1952550804,4689665.949488777,19,T
1698238668.4142747,1482,1698238668,287870883,GPS1_FRAME,1,42.340226666666666,-71.089095,17.2,327907.1952550804,4689665.949488777,19,T
1698238668.5770457,1483,1698238668,287870883,GPS1_FRAME,1,42.340226666666666,-71.089095,17.2,327907.1952550804,4689665.949488777,19,T
1698238669.289215,1484,1698238669,288207769,GPS1_FRAME,1,42.34024333333333,-71.08905,17.0,327910.9478317239,4689667.709117061,19,T
1698238669.4147525,1485,1698238669,288207769,GPS1_FRAME,1,42.34024333333333,-71.08905,17.0,327910.9478317239,4689667.709117061,19,T
1698238669.5775373,1486,1698238669,288207769,GPS1_FRAME,1,42.34024333333333,-71.08905,17.0,327910.9478317239,4689667.709117061,19,T
1698238670.2896123,1487,1698238670,288554430,GPS1_FRAME,1,42.34025833333333,-71.089015,17.0,327913.87205832766,4689669.303915736,19,T
1698238670.415412,1488,1698238670,288554430,GPS1_FRAME,1,42.34025833333333,-71.089015,17.0,327913.87205832766,4689669.303915736,19,T
1698238670.5753996,1489,1698238670,288554430,GPS1_FRAME,1,42.34025833333333,-71.089015,17.0,327913.87205832766,4689669.303915736,19,T
1698238670.7360423,1490,1698238670,288554430,GPS1_FRAME,1,42.34025833333333,-71.089015,17.0,327913.87205832766,4689669.303915736,19,T
1698238670.8824167,1491,1698238670,288554430,GPS1_FRAME,1,42.34025833333333,-71.089015,17.0,327913.87205832766,4689669.303915736,19,T
1698238671.0455306,1492,1698238670,288554430,GPS1_FRAME,1,42.34025833333333,-71.089015,17.0,327913.87205832766,4689669.303915736,19,T
1698238671.2898338,1493,1698238671,288687467,GPS1_FRAME,1,42.34027,-71.08898833333333,16.9,327916.10068912513,4689670.545439909,19,T
1698238671.4154503,1494,1698238671,288687467,GPS1_FRAME,1,42.34027,-71.08898833333333,16.9,327916.10068912513,4689670.545439909,19,T
1698238671.5777485,1495,1698238671,288687467,GPS1_FRAME,1,42.34027,-71.08898833333333,16.9,327916.10068912513,4689670.545439909,19,T
1698238672.2897537,1496,1698238672,288657665,GPS1_FRAME,1,42.340275,-71.08897333333333,16.9,327917.350031025,4689671.070293761,19,T
1698238672.4152522,1497,1698238672,288657665,GPS1_FRAME,1,42.340275,-71.08897333333333,16.9,327917.350031025,4689671.070293761,19,T
1698238672.578019,1498,1698238672,288657665,GPS1_FRAME,1,42.340275,-71.08897333333333,16.9,327917.350031025,4689671.070293761,19,T
1698238673.289851,1499,1698238673,288661003,GPS1_FRAME,1,42.340275,-71.08897166666667,16.9,327917.4873312002,4689671.06692063,19,T
1698238673.4154105,1500,1698238673,288661003,GPS1_FRAME,1,42.340275,-71.08897166666667,16.9,327917.4873312002,4689671.06692063,19,T
1698238673.577794,1501,1698238673,288661003,GPS1_FRAME,1,42.340275,-71.08897166666667,16.9,327917.4873312002,4689671.06692063,19,T
1698238674.2906508,1502,1698238674,289581060,GPS1_FRAME,1,42.340275,-71.08897333333333,16.9,327917.350031025,4689671.070293761,19,T
1698238674.4160435,1503,1698238674,289581060,GPS1_FRAME,1,42.340275,-71.08897333333333,16.9,327917.350031025,4689671.070293761,19,T
1698238674.5789862,1504,1698238674,289581060,GPS1_FRAME,1,42.340275,-71.08897333333333,16.9,327917.350031025,4689671.070293761,19,T
1698238675.2904484,1505,1698238675,289055347,GPS1_FRAME,1,42.340275,-71.08897333333333,16.9,327917.350031025,4689671.070293761,19,T
1698238675.4158309,1506,1698238675,289055347,GPS1_FRAME,1,42.340275,-71.08897333333333,16.9,327917.350031025,4689671.070293761,19,T
1698238675.5763497,1507,1698238675,289055347,GPS1_FRAME,1,42.340275,-71.08897333333333,16.9,327917.350031025,4689671.070293761,19,T
1698238675.7365975,1508,1698238675,289055347,GPS1_FRAME,1,42.340275,-71.08897333333333,16.9,327917.350031025,4689671.070293761,19,T
1698238675.883125,1509,1698238675,289055347,GPS1_FRAME,1,42.340275,-71.08897333333333,16.9,327917.350031025,4689671.070293761,19,T
1698238676.0459955,1510,1698238675,289055347,GPS1_FRAME,1,42.340275,-71.08897333333333,16.9,327917.350031025,4689671.070293761,19,T
1698238676.28962,1511,1698238676,288618087,GPS1_FRAME,1,42.340275,-71.08897333333333,16.9,327917.350031025,4689671.070293761,19,T
1698238676.4152737,1512,1698238676,288618087,GPS1_FRAME,1,42.340275,-71.08897333333333,16.9,327917.350031025,4689671.070293761,19,T
1698238676.5779967,1513,1698238676,288618087,GPS1_FRAME,1,42.340275,-71.08897333333333,16.9,327917.350031025,4689671.070293761,19,T
1698238677.289619,1514,1698238677,288657903,GPS1_FRAME,1,42.340275,-71.08897333333333,16.9,327917.350031025,4689671.070293761,19,T
1698238677.415281,1515,1698238677,288657903,GPS1_FRAME,1,42.340275,-71.08897333333333,16.9,327917.350031025,4689671.070293761,19,T
1698238677.578006,1516,1698238677,288657903,GPS1_FRAME,1,42.340275,-71.08897333333333,16.9,327917.350031025,4689671.070293761,19,T
1698238678.2902186,1517,1698238678,289221525,GPS1_FRAME,1,42.340275,-71.08897333333333,16.9,327917.350031025,4689671.070293761,19,T
1698238678.4160151,1518,1698238678,289221525,GPS1_FRAME,1,42.340275,-71.08897333333333,16.9,327917.350031025,4689671.070293761,19,T
1698238678.5784698,1519,1698238678,289221525,GPS1_FRAME,1,42.340275,-71.08897333333333,16.9,327917.350031025,4689671.070293761,19,T
1698238679.2900786,1520,1698238679,288990736,GPS1_FRAME,1,42.340275,-71.08897333333333,16.9,327917.350031025,4689671.070293761,19,T
1698238679.4156432,1521,1698238679,288990736,GPS1_FRAME,1,42.340275,-71.08897333333333,16.9,327917.350031025,4689671.070293761,19,T
1698238679.578296,1522,1698238679,288990736,GPS1_FRAME,1,42.340275,-71.08897333333333,16.9,327917.350031025,4689671.070293761,19,T
1698238680.2906127,1523,1698238680,289510965,GPS1_FRAME,1,42.340275,-71.08897333333333,16.9,327917.350031025,4689671.070293761,19,T
1698238680.4160397,1524,1698238680,289510965,GPS1_FRAME,1,42.340275,-71.08897333333333,16.9,327917.350031025,4689671.070293761,19,T
1698238680.5766044,1525,1698238680,289510965,GPS1_FRAME,1,42.340275,-71.08897333333333,16.9,327917.350031025,4689671.070293761,19,T
1698238680.7368429,1526,1698238680,289510965,GPS1_FRAME,1,42.340275,-71.08897333333333,16.9,327917.350031025,4689671.070293761,19,T
1698238680.8835118,1527,1698238680,289510965,GPS1_FRAME,1,42.340275,-71.08897333333333,16.9,327917.350031025,4689671.070293761,19,T
1698238681.046251,1528,1698238680,289510965,GPS1_FRAME,1,42.340275,-71.08897333333333,16.9,327917.350031025,4689671.070293761,19,T
1698238681.2896993,1529,1698238681,288614511,GPS1_FRAME,1,42.34027666666667,-71.08897166666667,16.9,327917.4918779357,4689671.251991348,19,T
1698238681.4151912,1530,1698238681,288614511,GPS1_FRAME,1,42.34027666666667,-71.08897166666667,16.9,327917.4918779357,4689671.251991348,19,T
1698238681.577925,1531,1698238681,288614511,GPS1_FRAME,1,42.34027666666667,-71.08897166666667,16.9,327917.4918779357,4689671.251991348,19,T
1698238682.2902813,1532,1698238682,289167404,GPS1_FRAME,1,42.34028333333333,-71.08895166666667,16.8,327919.15766677255,4689671.951796854,19,T
1698238682.4159982,1533,1698238682,289167404,GPS1_FRAME,1,42.34028333333333,-71.08895166666667,16.8,327919.15766677255,4689671.951796854,19,T
1698238682.578641,1534,1698238682,289167404,GPS1_FRAME,1,42.34028333333333,-71.08895166666667,16.8,327919.15766677255,4689671.951796854,19,T
1698238683.2900696,1535,1698238683,289127588,GPS1_FRAME,1,42.3403,-71.08891166666666,16.8,327922.49833661504,4689673.721550465,19,T
1698238683.4157505,1536,1698238683,289127588,GPS1_FRAME,1,42.3403,-71.08891166666666,16.8,327922.49833661504,4689673.721550465,19,T
1698238683.5785635,1537,1698238683,289127588,GPS1_FRAME,1,42.3403,-71.08891166666666,16.8,327922.49833661504,4689673.721550465,19,T
1698238684.2899494,1538,1698238684,288861989,GPS1_FRAME,1,42.34032333333333,-71.08885333333333,16.6,327927.3674915739,4689676.194485999,19,T
1698238684.4154177,1539,1698238684,288861989,GPS1_FRAME,1,42.34032333333333,-71.08885333333333,16.6,327927.3674915739,4689676.194485999,19,T
1698238684.5804255,1540,1698238684,288861989,GPS1_FRAME,1,42.34032333333333,-71.08885333333333,16.6,327927.3674915739,4689676.194485999,19,T
1698238685.2888215,1541,1698238685,287776947,GPS1_FRAME,1,42.34035166666666,-71.08878333333334,16.6,327933.2113821098,4689679.19902713,19,T
1698238685.4145315,1542,1698238685,287776947,GPS1_FRAME,1,42.34035166666666,-71.08878333333334,16.6,327933.2113821098,4689679.19902713,19,T
1698238685.5749025,1543,1698238685,287776947,GPS1_FRAME,1,42.34035166666666,-71.08878333333334,16.6,327933.2113821098,4689679.19902713,19,T
1698238685.7352283,1544,1698238685,287776947,GPS1_FRAME,1,42.34035166666666,-71.08878333333334,16.6,327933.2113821098,4689679.19902713,19,T
1698238685.8818765,1545,1698238685,287776947,GPS1_FRAME,1,42.34035166666666,-71.08878333333334,16.6,327933.2113821098,4689679.19902713,19,T
1698238686.0467463,1546,1698238685,287776947,GPS1_FRAME,1,42.34035166666666,-71.08878333333334,16.6,327933.2113821098,4689679.19902713,19,T
1698238686.2898002,1547,1698238686,288738250,GPS1_FRAME,1,42.340381666666666,-71.08870333333333,16.5,327939.8836133099,4689682.368407487,19,T
1698238686.4153912,1548,1698238686,288738250,GPS1_FRAME,1,42.340381666666666,-71.08870333333333,16.5,327939.8836133099,4689682.368407487,19,T
1698238686.5804648,1549,1698238686,288738250,GPS1_FRAME,1,42.340381666666666,-71.08870333333333,16.5,327939.8836133099,4689682.368407487,19,T
1698238687.2892058,1550,1698238687,288030862,GPS1_FRAME,1,42.34041666666667,-71.088615,16.4,327947.2559755371,4689686.076143377,19,T
1698238687.4146519,1551,1698238687,288030862,GPS1_FRAME,1,42.34041666666667,-71.088615,16.4,327947.2559755371,4689686.076143377,19,T
1698238687.579721,1552,1698238687,288030862,GPS1_FRAME,1,42.34041666666667,-71.088615,16.4,327947.2559755371,4689686.076143377,19,T
1698238688.2896266,1553,1698238688,288470745,GPS1_FRAME,1,42.340455,-71.08852,16.3,327955.1866203917,4689690.140538624,19,T
1698238688.4150755,1554,1698238688,288470745,GPS1_FRAME,1,42.340455,-71.08852,16.3,327955.1866203917,4689690.140538624,19,T
1698238688.580242,1555,1698238688,288470745,GPS1_FRAME,1,42.340455,-71.08852,16.3,327955.1866203917,4689690.140538624,19,T
1698238689.29292,1556,1698238689,291898012,GPS1_FRAME,1,42.340493333333335,-71.08842166666666,16.3,327963.3918551519,4689694.198198105,19,T
1698238689.4185653,1557,1698238689,291898012,GPS1_FRAME,1,42.340493333333335,-71.08842166666666,16.3,327963.3918551519,4689694.198198105,19,T
1698238689.5835624,1558,1698238689,291898012,GPS1_FRAME,1,42.340493333333335,-71.08842166666666,16.3,327963.3918551519,4689694.198198105,19,T
1698238690.2855744,1559,1698238690,284425973,GPS1_FRAME,1,42.34053333333333,-71.08832166666667,16.2,327971.738925037,4689698.437565575,19,T
1698238690.4066398,1560,1698238690,284425973,GPS1_FRAME,1,42.34053333333333,-71.08832166666667,16.2,327971.738925037,4689698.437565575,19,T
1698238690.5667427,1561,1698238690,284425973,GPS1_FRAME,1,42.34053333333333,-71.08832166666667,16.2,327971.738925037,4689698.437565575,19,T
1698238690.7270293,1562,1698238690,284425973,GPS1_FRAME,1,42.34053333333333,-71.08832166666667,16.2,327971.738925037,4689698.437565575,19,T
1698238690.8693328,1563,1698238690,284425973,GPS1_FRAME,1,42.34053333333333,-71.08832166666667,16.2,327971.738925037,4689698.437565575,19,T
1698238691.034435,1564,1698238690,284425973,GPS1_FRAME,1,42.34053333333333,-71.08832166666667,16.2,327971.738925037,4689698.437565575,19,T
1698238691.2844977,1565,1698238691,283370494,GPS1_FRAME,1,42.34057333333333,-71.08822166666667,16.2,327980.0859844988,4689702.676942717,19,T
1698238691.4054644,1566,1698238691,283370494,GPS1_FRAME,1,42.34057333333333,-71.08822166666667,16.2,327980.0859844988,4689702.676942717,19,T
1698238691.5704238,1567,1698238691,283370494,GPS1_FRAME,1,42.34057333333333,-71.08822166666667,16.2,327980.0859844988,4689702.676942717,19,T
1698238692.2858117,1568,1698238692,285319566,GPS1_FRAME,1,42.34061333333333,-71.08812166666667,16.1,327988.4330335397,4689706.916329529,19,T
1698238692.407301,1569,1698238692,285319566,GPS1_FRAME,1,42.34061333333333,-71.08812166666667,16.1,327988.4330335397,4689706.916329529,19,T
1698238692.572278,1570,1698238692,285319566,GPS1_FRAME,1,42.34061333333333,-71.08812166666667,16.1,327988.4330335397,4689706.916329529,19,T
1698238693.2846143,1571,1698238693,283607721,GPS1_FRAME,1,42.340653333333336,-71.08802166666666,16.0,327996.7800721574,4689711.1557260165,19,T
1698238693.405908,1572,1698238693,283607721,GPS1_FRAME,1,42.340653333333336,-71.08802166666666,16.0,327996.7800721574,4689711.1557260165,19,T
1698238693.570787,1573,1698238693,283607721,GPS1_FRAME,1,42.340653333333336,-71.08802166666666,16.0,327996.7800721574,4689711.1557260165,19,T
